{
    "locations": [
        {
            "name": "Berlin",
            "lat": 52.520006599,
            "long": 13.404954
        },
        {
            "name": "Hamburg",
            "lat": 53.5488282,
            "long": 9.987170299
        },
        {
            "name": "Munich",
            "lat": 48.1351253,
            "long": 11.5819806
        },
        {
            "name": "London",
            "lat": 51.5072178,
            "long": -0.1275862
        },
        {
            "name": "Birmingham",
            "lat": 52.48624299,
            "long": -1.890401
        },
        {
            "name": "Glasgow",
            "lat": 55.861670399,
            "long": -4.2583345
        }
    ]
}